[
		{
			"name": "正门",
			"lng": 116.63795113563538,
			"lat": 23.408647899069987
		},
		{
			"name": "体育园",
			"lng": 116.638965010643,
			"lat": 23.40904665319466
		},
		{
			"name": "新校训碑",
			"lng": 116.6381174325943,
			"lat": 23.40929771999013
		},
		{
			"name": "真理钟",
			"lng": 116.63690507411957,
			"lat": 23.410183834284663
		},
		{
			"name": "图书馆",
			"lng": 116.63586437702179,
			"lat": 23.410213371325632
		},
		{
			"name": "东门",
			"lng": 116.63810670375824,
			"lat": 23.41081887921266
		},
		{
			"name": "四饭/香两岸",
			"lng": 116.63763463497162,
			"lat": 23.41186251231992
		},
		{
			"name": "至诚书院",
			"lng": 116.6383695602417,
			"lat": 23.41155237692588
		},
		{
			"name": "G座宿舍",
			"lng": 116.63815498352051,
			"lat": 23.412349866470567
		},
		{
			"name": "E座教学楼",
			"lng": 116.6361540555954,
			"lat": 23.411892048986196
		},
		{
			"name": "近邻宝",
			"lng": 116.63692116737366,
			"lat": 23.41167052382837
		},
		{
			"name": "气膜篮球馆",
			"lng": 116.63766145706177,
			"lat": 23.41274368669518
		},
		{
			"name": "C座教学楼",
			"lng": 116.63728058338165,
			"lat": 23.412600926999197	
		},
		{
			"name": "DG教学楼",
			"lng": 116.6366958618164,
			"lat": 23.412930750891277
		},
		{
			"name": "行政楼",
			"lng": 116.63510262966156,
			"lat": 23.412999669212656
		},
		{
			"name": "校训碑",
			"lng": 116.63490414619446,
			"lat": 23.412034809446975
		},
		{
			"name": "大礼堂",
			"lng": 116.63349866867065,
			"lat": 23.412669845492346
		},
		{
			"name": "荷花池",
			"lng": 116.63354158401489,
			"lat": 23.411882203431514
		},
		{
			"name": "弘毅书院",
			"lng": 116.63319826126099,
			"lat": 23.410449667416056
		},
		{
			"name": "汕大附中",
			"lng": 116.63186252117157,
			"lat": 23.40994261486999
		},
		{
			"name": "西门",
			"lng": 116.62794649600983,
			"lat": 23.409858926398908
		},
		{
			"name": "知行书院/思源书院/西苑餐厅",
			"lng": 116.62855803966522,
			"lat": 23.41114870754649
		},
		{
			"name": "工会",
			"lng": 116.63240432739258,
			"lat": 23.411882203431514
		},
		{
			"name": "教师公寓",
			"lng": 116.6319590806961,
			"lat": 23.4121135737732		
		},
		{
			"name": "幼儿园",
			"lng": 116.63115978240967,
			"lat": 23.413191655775762
		},
		{
			"name": "体育场",
			"lng": 116.63143873214722,
			"lat": 23.41457985801973
		},
		{
			"name": "789",
			"lng": 116.63039803504944,
			"lat": 23.41388083601524
		},
		{
			"name": "校医院",
			"lng": 116.62995278835297,
			"lat": 23.414491249801024
		},
		{
			"name": "银行",
			"lng": 116.62989914417267,
			"lat": 23.4136051643502
		},
		{
			"name": "艺术教育中心",
			"lng": 116.62935733795166,
			"lat": 23.41388575871833
		},
		{
			"name": "地震台",
			"lng": 116.62957727909088,
			"lat": 23.4148752183202
		},
		{
			"name": "游泳池",
			"lng": 116.6302639245987,
			"lat": 23.415264108376874
		},
		{
			"name": "水库",
			"lng": 116.62993669509888,
			"lat": 23.416519378608186
		},
		{
			"name": "体育馆",
			"lng": 116.63097202777863,
			"lat": 23.4158745157809
		},
		{
			"name": "艺术学院",
			"lng": 116.63044095039368,
			"lat": 23.4183702651425
		},
		{
			"name": "淑德书院",
			"lng": 116.62955045700073,
			"lat": 23.418542553795003
		},
		{
			"name": "EF宿舍",
			"lng": 116.63163721561432,
			"lat": 23.416750740841135
		},
		{
			"name": "CD宿舍",
			"lng": 116.63239359855652,
			"lat": 23.416273248128977
		},
		{
			"name": "AB宿舍",
			"lng": 116.63272082805634,
			"lat": 23.415569312430915
		},
		{
			"name": "研究生宿舍",
			"lng": 116.63311243057251,
			"lat": 23.416012349321072
		},
		{
			"name": "第二/第三饭堂",
			"lng": 116.6333270072937,
			"lat": 23.41500320757897
		},
		{
			"name": "涂鸦墙中心",
			"lng": 116.6343355178833,
			"lat": 23.41565791992763
		},
		{
			"name": "科报厅",
			"lng": 116.63398146629333,
			"lat": 23.41479153296867
		},
		{
			"name": "新医学楼",
			"lng": 116.63311243057251,
			"lat": 23.40979985215216
		},
		{
			"name": "行政中心",
			"lng": 116.63371324539185,
			"lat": 23.414141739026338
		}
]